{
  "locations": [
    {
      "NAME": "نابلس مول",
      "ADDRESS": "وسط البلد-دوار الشهداء-مول نابلس",
      "PHONENO": "1 700- 300- 900",
      "LATITUDE": "32.221593",
      "LONGITUDE": "35.261351",
      "CITY": "نابلس"
    },
    {
      "NAME": "الادارة العامة",
      "ADDRESS": "مبنى الإدارة العامة البالوع",
      "PHONENO": "02-2968007",
      "LATITUDE": "31.9283878",
      "LONGITUDE": "35.21496274",
      "CITY": "رام الله"
    },
    {
      "NAME": "معرض بلازا",
      "ADDRESS": "مركز بلازا للتسوق البالوع",
      "PHONENO": "02-2968370",
      "LATITUDE": "31.92385568",
      "LONGITUDE": "35.21273732",
      "CITY": "رام الله"
    },
    {
      "NAME": "معرض طولكرم",
      "ADDRESS": "شارع المستشفى – بجانب مدرسة العدوية",
      "PHONENO": "1700-900-400",
      "LATITUDE": "32.3140654",
      "LONGITUDE": "35.0300469",
      "CITY": "طولكرم"
    },
    {
      "NAME": "معرض جنين",
      "ADDRESS": "شارع يحيى عياش عمارة النمر مول",
      "PHONENO": "04-2505547",
      "LATITUDE": "32.4631223",
      "LONGITUDE": "35.2970522",
      "CITY": "جنين"
    },
    {
      "NAME": "رام الله وسط البلد",
      "ADDRESS": "رام الله – الشارع الرئيسي – عمارة الاريزونا",
      "PHONENO": "02-2968390",
      "LATITUDE": "31.9046289",
      "LONGITUDE": "35.2007919",
      "CITY": "رام الله"
    },
    {
      "NAME": "معرض البيرة",
      "ADDRESS": "شارع نابلس مقابل سوبرماركت الشني",
      "PHONENO": "02-2968373",
      "LATITUDE": "31.9112636",
      "LONGITUDE": "35.216022",
      "CITY": "رام الله"
    },
    {
      "NAME": "الإرسال",
      "ADDRESS": "الإرسال- الإرسال سنتر-عمارة الCCC",
      "PHONENO": "",
      "LATITUDE": "31.9211303",
      "LONGITUDE": "35.2090426",
      "CITY": "رام الله"
    },
    {
      "NAME": "الخليل باب الزاوية",
      "ADDRESS": "شارع عين سارة",
      "PHONENO": "1700-200-900",
      "LATITUDE": "31.5281637",
      "LONGITUDE": "35.0991865",
      "CITY": "الخليل"
    },
    {
      "NAME": "الخليل واد التفاح",
      "ADDRESS": "الخليل- شارع واد التفاح",
      "PHONENO": "02-2216391",
      "LATITUDE": "31.5282188",
      "LONGITUDE": "35.0992051",
      "CITY": "الخليل"
    },
    {
      "NAME": "نابلس رفيديا",
      "ADDRESS": "رفيديا مقابل جاتوه لبنان",
      "PHONENO": "09-2337367",
      "LATITUDE": "32.2241057",
      "LONGITUDE": "35.2492613",
      "CITY": "نابلس"
    },
    {
      "NAME": "معرض اريحا",
      "ADDRESS": "شارع قصر هشام بجانب البنك العربي",
      "PHONENO": "02-2322222",
      "LATITUDE": "31.8592923",
      "LONGITUDE": "35.4597692",
      "CITY": "اريحا"
    },
    {
      "NAME": "معرض بيت لحم",
      "ADDRESS": "شارع المهد الشارع الجديد",
      "PHONENO": "02-2760050",
      "LATITUDE": "31.7129172",
      "LONGITUDE": "35.2012588",
      "CITY": "بيت لحم"
    },
    {
      "NAME": "معرض حلحول",
      "ADDRESS": "مقابل مطعم الأخوة",
      "PHONENO": "02-2299051",
      "LATITUDE": "31.545008",
      "LONGITUDE": "35.098808",
      "CITY": "حلحول"
    },
    {
      "NAME": "معرض دورا",
      "ADDRESS": "دورا بجانب البنك العربي",
      "PHONENO": "02-2285254",
      "LATITUDE": "31.50559656",
      "LONGITUDE": "35.03544057",
      "CITY": "دورا"
    },
    {
      "NAME": "معرض قلقيلية",
      "ADDRESS": "شارع جلجوليا مقابل بنك فلسطين المحدود",
      "PHONENO": "09-2945860",
      "LATITUDE": "32.1860903",
      "LONGITUDE": "34.9640145",
      "CITY": "قلقيلية"
    },
    {
      "NAME": "معرض غزة الرئيسي",
      "ADDRESS": "غزة - الجلاء",
      "PHONENO": "08-2858883",
      "LATITUDE": "31.51555556",
      "LONGITUDE": "34.45194444",
      "CITY": "غزة"
    },
    {
      "NAME": "معرض غزة - البلد",
      "ADDRESS": "غزة - شارع عمر المختار",
      "PHONENO": "08-2858884",
      "LATITUDE": "31.50502205",
      "LONGITUDE": "34.46262741",
      "CITY": "غزة"
    },
    {
      "NAME": "معرض النصر",
      "ADDRESS": "غزة/شارع النصر –عمارة الزنط بجوار بنك فلسطين",
      "PHONENO": "08-2858882",
      "LATITUDE": "31.32886",
      "LONGITUDE": "34.273813",
      "CITY": "غزة"
    },
    {
      "NAME": "معرض جباليا",
      "ADDRESS": "جباليا/ دوار أبو شرخ/ مقابل محطة العامودي للبترول.",
      "PHONENO": "08-2858885",
      "LATITUDE": "31.53641891",
      "LONGITUDE": "34.48736954",
      "CITY": "جباليا"
    },
    {
      "NAME": "معرض النصيرات",
      "ADDRESS": "النصيرات – شارع صلاح الدين – مقابل مدخل البريج الشمالي",
      "PHONENO": "",
      "LATITUDE": "31.264026",
      "LONGITUDE": "34.235533",
      "CITY": "النصيرات"
    },
    {
      "NAME": "معرض دير البلح",
      "ADDRESS": "دير البلح - شارع الشهداء",
      "PHONENO": "08-2858886",
      "LATITUDE": "31.41217222",
      "LONGITUDE": "34.35652222",
      "CITY": "دير البلح"
    },
    {
      "NAME": "معرض خانيونس",
      "ADDRESS": "خانيونس - شارع جلال",
      "PHONENO": "08-2058878",
      "LATITUDE": "31.34538651",
      "LONGITUDE": "34.30553055",
      "CITY": "خانيونس"
    },
    {
      "NAME": "معرض رفح",
      "ADDRESS": "رفح - شارع أبو بكر الصديق ( البحر )",
      "PHONENO": "08-2858889",
      "LATITUDE": "31.27658081",
      "LONGITUDE": "34.25753021",
      "CITY": "رفح"
    }
  ]
}